Address;lat;lon
117 rue des Alliés 38000 GRENOBLE;45.1875;5.7173
14 RUE DE LA BEAUNE 93181 MONTREUIL CEDEX;48.8618;2.4359
Golden temple 38420 DOMENE;45.1966;5.8294
Microcosme SAS 59910 BONDUES;50.7157;3.0955
72 cours Jean Jaurès 38000 GRENOBLE;45.1857;5.7179
135 chemin du bel air 38470 TECHE;45.1884;5.3843
10 rue maurice mougeot bp 6 88600 LAVAL SUR VOLOGNE;48.1941;6.704
440 RUE DE LA GARE 38730 VIRIEU;45.4857;5.4761
14 rue jean moulin 38640 CLAIX;45.1197;5.6709
DOMAINE DU MORTIER 37140 ST NICOLAS DE BOURGUEIL;47.3013;0.1257
82 VOIE DE LA MARTINETTE 38620 ST GEOIRE EN VALDAINE;45.4597;5.6428
8 rue gay lussac 38100 GRENOBLE;45.1785;5.7339
220, Impasse du Plan Oriental 83440 MONTAUROUX;43.6027;6.7712
23 Les Tonnelles 38420 LE VERSOUD;45.2184;5.8626
5 avenue louis broglie 33600 PESSAC;44.7823;-0.6451
Rue du pas de l'Aiguille 38710 MENS;44.8167;5.7494
933 CHEMIN DES ROUX 38410 VAULNAVEYS LE HAUT;45.1297;5.8352
Route du Merger 38420 REVEL;45.1876;5.8792
14 Rue du Haut Cousse 37210 VERNOU SUR BRENNE;47.4488;0.8435
(NATURA SCOP) 38320 EYBENS;45.1539;5.749
690 CHEMIN YVES SERGUIER 84420 PIOLENC;44.1918;4.7892
50 chemin des brunieres 38210 LA RIVIERE;45.2376;5.5085
CHEMIN DU GRES 84830 SERIGNAN DU COMTAT;44.1868;4.8408
1, rue des Déportés 49730 TURQUANT;47.216;0.0278
91 rue de la Tronche 73250 FRETERIVE;45.5845;6.2102
53 boulevard victor hugo 44200 NANTES;47.2025;-1.5487
RUE DE GALLILEE 56250 ST NOLFF;47.6946;-2.6376
35 rue des Alliés 38100 GRENOBLE;45.1701;5.7283
Le chateau 73220 ARGENTINE;45.5121;6.3189
Allée du Commerce équitable 32500 FLEURANCE;43.8546;0.6479
367 route de Montrevel 1340 ETREZ;46.3337;5.1813
La versanne 38930 SINARD;44.9446;5.6547
Les Peyrouses 38320 HERBEYS;45.1458;5.7936
2514 Vallée du Regrimay 38270 LENTIOL;45.294;5.084
13 rue beyle stendhal 38000 GRENOBLE;45.1866;5.7305
54 chemin du Murier 38410 ST MARTIN D'URIAGE;45.1505;5.8163
1921 route du replat 38410 ST MARTIN D'URIAGE;45.1601;5.8629
Hameau de Ruthières 38930 CHICHILIANNE;44.8137;5.5737
91 le petit Béraud 38780 EYZIN PINET;45.4905;4.9793
14 chemin de la Montagne 38850 BILIEU;45.4566;5.5784
8 rue Anatole France 69800 ST PRIEST;45.6915;4.9357
11 ROUTE DE lYON 73160 COGNIN;45.5615;5.8986
Rue de la republique 36700 CHATILLON SUR INDRE;46.9887;1.1746
128 Chemin de la Croix Verte 38330 MONTBONNOT ST MARTIN;45.2233;5.8074
1 Allée des Tamaris 38350 LA MURE;44.8967;5.7903
9 chemin de Choisy 4200 PEIPIN;44.1409;5.9638
Le muret de tournaloup 73390 VILLARD LEGER;45.4895;6.1747
850 D route d'Allan 26780 MALATAVERNE;44.4854;4.7664
355 ROUTE DE LA GARE 38210 VOUREY;45.3186;5.521
Route Départementale 1006 73800 MONTMELIAN;45.5033;6.0408
9 chemin des Bérangers 26400 BEAUFORT SUR GERVANNE;44.7717;5.1455
7 RUE DE LA MALADIERE 38360 SASSENAGE;45.2069;5.6806
23 avenue Reille 75014 PARIS 14;48.8247;2.3402
3 rue genissieu 38000 GRENOBLE;45.1863;5.7226
Z.A La Croisette 38930 CLELLES;44.8295;5.6238
ZA La Palun 26170 BUIS LES BARONNIES;44.2649;5.2633
30 rue du peuil 38760 VARCES ALLIERES ET RISSET;45.0917;5.6847
42 avenue Jean Jaurès 38600 FONTAINE;45.1913;5.6973
23 avenue paul langevin 17183 PÉRIGNY CEDEX;46.1623;-1.0929
645 rue des champs 74540 ALBY SUR CHERAN;45.8203;6.0044
Chez baratier 7530 LAVIOLLE;44.7568;4.3436
110 chemin de dédain dessus 38880 AUTRANS;45.1686;5.5601
1 place Condorcet 38000 GRENOBLE;45.1851;5.7209
17990 AVENUE DU VERCORS 38160 CHATTE;45.1351;5.2801
10 PLACE EDMOND ARNAUD 38100 GRENOBLE;45.1923;5.7342
40 avenue Marcelin Berthelot 38036 GRENOBLE;45.1726;5.7314
450 Chemin de la Gustinière 38260 PAJAY;45.3505;5.1077
VILLENEUVE 26420 LA CHAPELLE EN VERCORS;44.9665;5.415
8 BIS ROUTE DE GRENOBLE 38120 ST EGREVE;45.2273;5.6846
Le Fay 38190 STE AGNES;45.2232;5.9356
Quartier leche 26190 ROCHECHINARD;45.0311;5.2395
52 rue de la tanguiere - Orval 50208 COUTANCES CEDEX;49.0202;-1.502
9 AVENUE MARAICHAL RANDON 38000 GRENOBLE;45.1987;5.7389
185 chemin du Thuve 4700 ORAISON;43.9083;5.914
Chef lieu 73390 CHAMP LAURENT;45.5082;6.2053
Les rojons 38530 ST MAXIMIN;45.4282;6.0423
Abbottagra 49160 LONGUE JUMELLES;47.4086;-0.1201
Sa les biscottes roger 13795 AIX EN PROVENCE;43.5031;5.3858
441 rue charles de Gaulle 38920 CROLLES;45.2767;5.8889
44 Avenue des allobroges 26100 ROMANS SUR ISERE;45.0555;5.0927
Route d'Orcières 5500 ST LAURENT DU CROS;44.6477;6.1009
La croix de Raspail 7200 LACHAPELLE SOUS AUBENAS;44.5672;4.3676
90 chemin de Véronne 26150 PONTAIX;44.7519;5.2634
1 rue Copernic 53200 CHATEAU GONTIER;47.842;-0.7349
10 chemin de la Rémonde 38300 ST SAVIN;45.6291;5.306
7 CHEMIN DES TUILERIES 13015 MARSEILLE 15;43.3707;5.355
Le Quarrï 4150 REVEST DU BION;44.0934;5.5472
500 AVENUE DU PIC DE BERTAGNE 13420 GEMENOS;43.2825;5.6127
4 rue Tournefort 42000 ST ETIENNE;45.4595;4.3957
207 MONTEE DE LA GONTARIE 38620 MASSIEU;45.4321;5.5958
Les gramailles 7360 ST MICHEL DE CHABRILLANOUX;44.8371;4.5953
LES CHOLLEAUX 85740 L'EPINE;46.9816;-2.2656
342 ROUTE DE ROBINSON 74150 VALLIERES;45.8932;5.9402
Le Tomas 5260 CHABOTTES;44.6436;6.1736
101 Rue de Wingersheim 67170 KRAUTWILLER;48.7335;7.6645
Via Muscatello 95125 CATANIA;37.5142;15.0812
